{
  "version": "v7_weather_decision_quality",
  "generated_at": "2026-05-24T10:25+08:00",
  "summary": {
    "total_locations": 127,
    "confidence_by_grade": {
      "A": 127,
      "B": 0,
      "C": 0,
      "D": 0
    },
    "ambiguity_by_risk": {
      "none": 33,
      "low": 72,
      "medium": 15,
      "high": 7
    },
    "critical_high_ambiguity": 7,
    "no_ambiguity": 33
  },
  "locations": [
    {
      "query_zh": "四姑娘山镇",
      "display_name": "四姑娘山镇",
      "lat": 31.094381,
      "lng": 102.826018,
      "elevation_m": 4694.0,
      "confidence_final": "A",
      "ambiguity_risk": "none",
      "recommended_query_zh": "四姑娘山镇",
      "review_note": "清晰单一地名，无歧义"
    },
    {
      "query_zh": "雨崩村",
      "display_name": "雨崩村",
      "lat": 28.393412,
      "lng": 98.793003,
      "elevation_m": 3082.0,
      "confidence_final": "A",
      "ambiguity_risk": "none",
      "recommended_query_zh": "雨崩村",
      "review_note": "清晰单一地名，无歧义"
    },
    {
      "query_zh": "哈巴村",
      "display_name": "哈巴村",
      "lat": 27.379,
      "lng": 100.137,
      "elevation_m": 2654.0,
      "confidence_final": "A",
      "ambiguity_risk": "low",
      "recommended_query_zh": "云南香格里拉哈巴村",
      "review_note": "['不要混淆为新疆哈巴河县']"
    },
    {
      "query_zh": "武功山",
      "display_name": "武功山",
      "lat": 27.473856,
      "lng": 114.159907,
      "elevation_m": 953.0,
      "confidence_final": "A",
      "ambiguity_risk": "medium",
      "recommended_query_zh": "江西萍乡武功山金顶",
      "review_note": "['金顶 vs 萍乡/安福入口']"
    },
    {
      "query_zh": "虎跳峡",
      "display_name": "虎跳峡",
      "lat": 27.239367,
      "lng": 100.153928,
      "elevation_m": 2082.0,
      "confidence_final": "A",
      "ambiguity_risk": "high",
      "recommended_query_zh": "云南虎跳峡中虎跳",
      "review_note": "['上/中/下虎跳跨度20km。halfway客栈另有一组坐标']"
    },
    {
      "query_zh": "独库公路",
      "display_name": "独库公路",
      "lat": 42.93521,
      "lng": 83.855961,
      "elevation_m": 2515.0,
      "confidence_final": "A",
      "ambiguity_risk": "low",
      "recommended_query_zh": "独库公路中段",
      "review_note": "['全长561km，跨越多个气候区。取高德返回POI坐标(42.935,83.856)']"
    },
    {
      "query_zh": "青海湖",
      "display_name": "青海湖",
      "lat": 36.952865,
      "lng": 100.185245,
      "elevation_m": 3195.0,
      "confidence_final": "A",
      "ambiguity_risk": "none",
      "recommended_query_zh": "青海湖",
      "review_note": "清晰单一地名，无歧义"
    },
    {
      "query_zh": "冈仁波齐",
      "display_name": "冈仁波齐",
      "lat": 30.967693,
      "lng": 81.289413,
      "elevation_m": 4637.0,
      "confidence_final": "A",
      "ambiguity_risk": "none",
      "recommended_query_zh": "冈仁波齐",
      "review_note": "清晰单一地名，无歧义"
    },
    {
      "query_zh": "纳木错",
      "display_name": "纳木错",
      "lat": 30.772266,
      "lng": 90.883504,
      "elevation_m": 4746.0,
      "confidence_final": "A",
      "ambiguity_risk": "none",
      "recommended_query_zh": "纳木错",
      "review_note": "清晰单一地名，无歧义"
    },
    {
      "query_zh": "贡嘎山",
      "display_name": "贡嘎山",
      "lat": 29.561356,
      "lng": 101.718005,
      "elevation_m": 4279.0,
      "confidence_final": "A",
      "ambiguity_risk": "none",
      "recommended_query_zh": "贡嘎山",
      "review_note": "清晰单一地名，无歧义"
    },
    {
      "query_zh": "鳌太线",
      "display_name": "鳌太线",
      "lat": 34.050026,
      "lng": 107.360591,
      "elevation_m": 1596.0,
      "confidence_final": "A",
      "ambiguity_risk": "low",
      "recommended_query_zh": "陕西太白县塘口村",
      "review_note": "['80km穿越线，取高德返回的塘口村坐标']"
    },
    {
      "query_zh": "墨脱",
      "display_name": "墨脱",
      "lat": 29.325,
      "lng": 95.333,
      "elevation_m": 1092.0,
      "confidence_final": "A",
      "ambiguity_risk": "low",
      "recommended_query_zh": "西藏墨脱县城",
      "review_note": "['墨脱县 vs 墨脱镇']"
    },
    {
      "query_zh": "喀拉峻草原",
      "display_name": "喀拉峻草原",
      "lat": 43.065713,
      "lng": 82.088099,
      "elevation_m": 2236.0,
      "confidence_final": "A",
      "ambiguity_risk": "none",
      "recommended_query_zh": "喀拉峻草原",
      "review_note": "清晰单一地名，无歧义"
    },
    {
      "query_zh": "黄山光明顶",
      "display_name": "黄山光明顶",
      "lat": 30.133,
      "lng": 118.167,
      "elevation_m": 1644.0,
      "confidence_final": "A",
      "ambiguity_risk": "medium",
      "recommended_query_zh": "安徽黄山光明顶",
      "review_note": "['多个黄山入口']"
    },
    {
      "query_zh": "大理古城",
      "display_name": "大理古城",
      "lat": 25.694836,
      "lng": 100.164,
      "elevation_m": 2015.0,
      "confidence_final": "A",
      "ambiguity_risk": "low",
      "recommended_query_zh": "云南大理古城",
      "review_note": "['大理市（下关）vs 大理古城']"
    },
    {
      "query_zh": "泸沽湖",
      "display_name": "泸沽湖",
      "lat": 27.71162,
      "lng": 100.779976,
      "elevation_m": 2693.0,
      "confidence_final": "A",
      "ambiguity_risk": "low",
      "recommended_query_zh": "泸沽湖",
      "review_note": "['跨云南四川两省']"
    },
    {
      "query_zh": "长白山天池",
      "display_name": "长白山天池",
      "lat": 42.025816,
      "lng": 128.070873,
      "elevation_m": 2561.0,
      "confidence_final": "A",
      "ambiguity_risk": "medium",
      "recommended_query_zh": "吉林长白山天池",
      "review_note": "['北/西/南坡入口不同']"
    },
    {
      "query_zh": "稻城亚丁",
      "display_name": "稻城亚丁",
      "lat": 28.458898,
      "lng": 100.286793,
      "elevation_m": 4887.0,
      "confidence_final": "A",
      "ambiguity_risk": "low",
      "recommended_query_zh": "四川稻城亚丁景区",
      "review_note": "['景区 vs 县城']"
    },
    {
      "query_zh": "珠峰大本营",
      "display_name": "珠峰大本营",
      "lat": 28.164796,
      "lng": 86.843364,
      "elevation_m": 5041.0,
      "confidence_final": "A",
      "ambiguity_risk": "low",
      "recommended_query_zh": "西藏珠峰北坡大本营",
      "review_note": "['北坡(中国) vs 南坡(尼泊尔)']"
    },
    {
      "query_zh": "峨眉山金顶",
      "display_name": "峨眉山金顶",
      "lat": 29.52,
      "lng": 103.34,
      "elevation_m": 2500.0,
      "confidence_final": "A",
      "ambiguity_risk": "medium",
      "recommended_query_zh": "四川峨眉山金顶",
      "review_note": "['与山脚温差可达15°C+']"
    },
    {
      "query_zh": "梅里雪山飞来寺",
      "display_name": "梅里雪山飞来寺",
      "lat": 28.444183,
      "lng": 98.881797,
      "elevation_m": 3420.0,
      "confidence_final": "A",
      "ambiguity_risk": "none",
      "recommended_query_zh": "梅里雪山飞来寺",
      "review_note": "清晰单一地名，无歧义"
    },
    {
      "query_zh": "扎尕那",
      "display_name": "扎尕那",
      "lat": 34.150613,
      "lng": 103.178514,
      "elevation_m": 2719.0,
      "confidence_final": "A",
      "ambiguity_risk": "low",
      "recommended_query_zh": "甘肃迭部扎尕那",
      "review_note": "['东哇/业日/达日/代巴四个村']"
    },
    {
      "query_zh": "亚丁村",
      "display_name": "亚丁村",
      "lat": 28.454273,
      "lng": 100.339561,
      "elevation_m": 3907.0,
      "confidence_final": "A",
      "ambiguity_risk": "low",
      "recommended_query_zh": "四川稻城亚丁村",
      "review_note": "['亚丁村 vs 稻城县城(香格里拉镇)']"
    },
    {
      "query_zh": "林芝",
      "display_name": "林芝",
      "lat": 29.65,
      "lng": 94.36,
      "elevation_m": 2990.0,
      "confidence_final": "A",
      "ambiguity_risk": "low",
      "recommended_query_zh": "西藏林芝市区",
      "review_note": "['林芝市下辖多个县']"
    },
    {
      "query_zh": "色达五明佛学院",
      "display_name": "色达五明佛学院",
      "lat": 32.150521,
      "lng": 100.472477,
      "elevation_m": 4024.0,
      "confidence_final": "A",
      "ambiguity_risk": "none",
      "recommended_query_zh": "色达五明佛学院",
      "review_note": "清晰单一地名，无歧义"
    },
    {
      "query_zh": "腾冲",
      "display_name": "腾冲",
      "lat": 25.03,
      "lng": 98.49,
      "elevation_m": 1640.0,
      "confidence_final": "A",
      "ambiguity_risk": "high",
      "recommended_query_zh": "云南腾冲市区",
      "review_note": "['腾冲市范围大']"
    },
    {
      "query_zh": "羊卓雍错",
      "display_name": "羊卓雍错",
      "lat": 28.930442,
      "lng": 90.681079,
      "elevation_m": 4438.0,
      "confidence_final": "A",
      "ambiguity_risk": "none",
      "recommended_query_zh": "羊卓雍错",
      "review_note": "清晰单一地名，无歧义"
    },
    {
      "query_zh": "张掖丹霞",
      "display_name": "张掖丹霞",
      "lat": 38.97201,
      "lng": 100.062804,
      "elevation_m": 1735.0,
      "confidence_final": "A",
      "ambiguity_risk": "none",
      "recommended_query_zh": "张掖丹霞",
      "review_note": "清晰单一地名，无歧义"
    },
    {
      "query_zh": "赛里木湖",
      "display_name": "赛里木湖",
      "lat": 44.617077,
      "lng": 81.386542,
      "elevation_m": 2114.0,
      "confidence_final": "A",
      "ambiguity_risk": "low",
      "recommended_query_zh": "新疆赛里木湖",
      "review_note": "['东门 vs 南门']"
    },
    {
      "query_zh": "漠河",
      "display_name": "漠河",
      "lat": 52.97,
      "lng": 122.53,
      "elevation_m": 438.0,
      "confidence_final": "A",
      "ambiguity_risk": "high",
      "recommended_query_zh": "黑龙江漠河市区",
      "review_note": "['漠河市范围大']"
    },
    {
      "query_zh": "吐鲁番",
      "display_name": "吐鲁番",
      "lat": 42.972736,
      "lng": 89.250261,
      "elevation_m": 103.0,
      "confidence_final": "A",
      "ambiguity_risk": "low",
      "recommended_query_zh": "新疆吐鲁番高昌区",
      "review_note": "['吐鲁番市 vs 地区']"
    },
    {
      "query_zh": "九寨沟",
      "display_name": "九寨沟",
      "lat": 33.142376,
      "lng": 103.912874,
      "elevation_m": 2852.0,
      "confidence_final": "A",
      "ambiguity_risk": "low",
      "recommended_query_zh": "九寨沟景区沟口",
      "review_note": "['沟口(2000m) vs 原始森林(3000m)，垂直高差1000m。坐标取景区中心']"
    },
    {
      "query_zh": "喀纳斯湖",
      "display_name": "喀纳斯湖",
      "lat": 48.607285,
      "lng": 86.999057,
      "elevation_m": 2563.0,
      "confidence_final": "A",
      "ambiguity_risk": "none",
      "recommended_query_zh": "喀纳斯湖",
      "review_note": "清晰单一地名，无歧义"
    },
    {
      "query_zh": "华山",
      "display_name": "华山",
      "lat": 34.48,
      "lng": 110.08,
      "elevation_m": 1886.0,
      "confidence_final": "A",
      "ambiguity_risk": "none",
      "recommended_query_zh": "华山",
      "review_note": "清晰单一地名，无歧义"
    },
    {
      "query_zh": "张家界天子山",
      "display_name": "张家界天子山",
      "lat": 29.4,
      "lng": 110.46,
      "elevation_m": 852.0,
      "confidence_final": "A",
      "ambiguity_risk": "none",
      "recommended_query_zh": "张家界天子山",
      "review_note": "清晰单一地名，无歧义"
    },
    {
      "query_zh": "梅里雪山雨崩上村",
      "display_name": "梅里雪山雨崩上村",
      "lat": 28.395028,
      "lng": 98.796646,
      "elevation_m": 3118.0,
      "confidence_final": "A",
      "ambiguity_risk": "none",
      "recommended_query_zh": "梅里雪山雨崩上村",
      "review_note": "清晰单一地名，无歧义"
    },
    {
      "query_zh": "雨崩下村",
      "display_name": "雨崩下村",
      "lat": 28.387189,
      "lng": 98.794926,
      "elevation_m": 3275.0,
      "confidence_final": "A",
      "ambiguity_risk": "none",
      "recommended_query_zh": "雨崩下村",
      "review_note": "清晰单一地名，无歧义"
    },
    {
      "query_zh": "库拉岗日",
      "display_name": "库拉岗日",
      "lat": 28.23,
      "lng": 90.58,
      "elevation_m": 5792.0,
      "confidence_final": "A",
      "ambiguity_risk": "low",
      "recommended_query_zh": "使用坐标直查(28.23,90.58)",
      "review_note": "['西藏洛扎县境内，非行政区划名。Open-Meteo Geocoding搜不到']"
    },
    {
      "query_zh": "他念他翁",
      "display_name": "他念他翁",
      "lat": 29.0,
      "lng": 98.5,
      "elevation_m": 4554.0,
      "confidence_final": "A",
      "ambiguity_risk": "low",
      "recommended_query_zh": "使用坐标直查(29.0,98.5)",
      "review_note": "['横断山脉徒步穿越线，坐标取路线中点。非标准地名']"
    },
    {
      "query_zh": "乌孙古道",
      "display_name": "乌孙古道",
      "lat": 42.2,
      "lng": 82.5,
      "elevation_m": 1810.0,
      "confidence_final": "A",
      "ambiguity_risk": "medium",
      "recommended_query_zh": "使用坐标直查(42.2,82.5)",
      "review_note": "['穿越天山南北的徒步线，南北入口不同(琼库什台/黑英山)。坐标取路线中点']"
    },
    {
      "query_zh": "夏塔古道",
      "display_name": "夏塔古道",
      "lat": 42.597704,
      "lng": 80.668138,
      "elevation_m": 2196.0,
      "confidence_final": "A",
      "ambiguity_risk": "none",
      "recommended_query_zh": "夏塔古道",
      "review_note": "清晰单一地名，无歧义"
    },
    {
      "query_zh": "太白山拔仙台",
      "display_name": "太白山拔仙台",
      "lat": 33.95,
      "lng": 107.77,
      "elevation_m": 3602.0,
      "confidence_final": "A",
      "ambiguity_risk": "none",
      "recommended_query_zh": "太白山拔仙台",
      "review_note": "清晰单一地名，无歧义"
    },
    {
      "query_zh": "漓江杨堤",
      "display_name": "漓江杨堤",
      "lat": 24.992979,
      "lng": 110.454812,
      "elevation_m": 169.0,
      "confidence_final": "A",
      "ambiguity_risk": "none",
      "recommended_query_zh": "漓江杨堤",
      "review_note": "清晰单一地名，无歧义"
    },
    {
      "query_zh": "小五台山",
      "display_name": "小五台山",
      "lat": 39.933923,
      "lng": 115.003255,
      "elevation_m": 1851.0,
      "confidence_final": "A",
      "ambiguity_risk": "none",
      "recommended_query_zh": "小五台山",
      "review_note": "清晰单一地名，无歧义"
    },
    {
      "query_zh": "海螺沟",
      "display_name": "海螺沟",
      "lat": 29.590499,
      "lng": 102.04715,
      "elevation_m": 2413.0,
      "confidence_final": "A",
      "ambiguity_risk": "none",
      "recommended_query_zh": "海螺沟",
      "review_note": "清晰单一地名，无歧义"
    },
    {
      "query_zh": "莫干山",
      "display_name": "莫干山",
      "lat": 30.609478,
      "lng": 119.872252,
      "elevation_m": 417.0,
      "confidence_final": "A",
      "ambiguity_risk": "high",
      "recommended_query_zh": "莫干山风景名胜区",
      "review_note": "['莫干山范围大，核心景区与外围民宿区温差可达5-8°C。坐标取景区中心(30.61,119.87)']"
    },
    {
      "query_zh": "雪乡",
      "display_name": "雪乡",
      "lat": 44.349745,
      "lng": 128.850151,
      "elevation_m": 441.0,
      "confidence_final": "A",
      "ambiguity_risk": "none",
      "recommended_query_zh": "雪乡",
      "review_note": "清晰单一地名，无歧义"
    },
    {
      "query_zh": "五台山",
      "display_name": "五台山",
      "lat": 38.967437,
      "lng": 113.590117,
      "elevation_m": 1994.0,
      "confidence_final": "A",
      "ambiguity_risk": "medium",
      "recommended_query_zh": "五台山台怀镇",
      "review_note": "['台怀镇(1700m) vs 北台顶(3061m)，温差可达15°C。气象查询建议同时查台怀+北台顶']"
    },
    {
      "query_zh": "雅鲁藏布大峡谷",
      "display_name": "雅鲁藏布大峡谷",
      "lat": 29.612778,
      "lng": 94.937467,
      "elevation_m": 2962.0,
      "confidence_final": "A",
      "ambiguity_risk": "none",
      "recommended_query_zh": "雅鲁藏布大峡谷",
      "review_note": "清晰单一地名，无歧义"
    },
    {
      "query_zh": "念青唐古拉山",
      "display_name": "念青唐古拉山",
      "lat": 30.544908,
      "lng": 91.130087,
      "elevation_m": 4288.0,
      "confidence_final": "A",
      "ambiguity_risk": "none",
      "recommended_query_zh": "念青唐古拉山",
      "review_note": "清晰单一地名，无歧义"
    },
    {
      "query_zh": "阿里暗夜公园",
      "display_name": "阿里暗夜公园",
      "lat": 32.335266,
      "lng": 80.042539,
      "elevation_m": 4675.0,
      "confidence_final": "A",
      "ambiguity_risk": "none",
      "recommended_query_zh": "阿里暗夜公园",
      "review_note": "清晰单一地名，无歧义"
    },
    {
      "query_zh": "理塘",
      "display_name": "理塘",
      "lat": 30.0,
      "lng": 100.27,
      "elevation_m": 3986.0,
      "confidence_final": "A",
      "ambiguity_risk": "low",
      "recommended_query_zh": "理塘县城(高城镇)",
      "review_note": "['理塘县城(高城镇,4014m) vs 理塘草原(毛垭大草原,3800-4200m)。坐标取县城，世界最高县城之一']"
    },
    {
      "query_zh": "党岭",
      "display_name": "党岭",
      "lat": 31.072,
      "lng": 101.407,
      "elevation_m": 3393.0,
      "confidence_final": "A",
      "ambiguity_risk": "high",
      "recommended_query_zh": "四川丹巴党岭",
      "review_note": "['陕西也有同名村(秦岭南麓)。四川党岭在丹巴县，坐标(31.07,101.41)为葫芦海区域']"
    },
    {
      "query_zh": "年保玉则",
      "display_name": "年保玉则",
      "lat": 33.290107,
      "lng": 101.112239,
      "elevation_m": 4951.0,
      "confidence_final": "A",
      "ambiguity_risk": "low",
      "recommended_query_zh": "年保玉则(已关闭，坐标保留备查)",
      "review_note": "['又名年宝叶什则、果洛山。已关闭禁止穿越，核心景区年保湖。坐标保留备查']"
    },
    {
      "query_zh": "天山天池",
      "display_name": "天山天池",
      "lat": 44.103728,
      "lng": 88.064718,
      "elevation_m": 714.0,
      "confidence_final": "A",
      "ambiguity_risk": "low",
      "recommended_query_zh": "天山天池景区",
      "review_note": "['天池(1910m) vs 博格达峰(5445m)，相距约30km。天气差异大。坐标取天池景区中心']"
    },
    {
      "query_zh": "喀什古城",
      "display_name": "喀什古城",
      "lat": 39.47,
      "lng": 75.98,
      "elevation_m": 1302.0,
      "confidence_final": "A",
      "ambiguity_risk": "high",
      "recommended_query_zh": "喀什古城景区",
      "review_note": "['喀什市(含新城+古城)范围大。气象建议查喀什古城景区(39.472,75.988)']"
    },
    {
      "query_zh": "西双版纳热带雨林",
      "display_name": "西双版纳热带雨林",
      "lat": 22.009037,
      "lng": 100.797002,
      "elevation_m": 558.0,
      "confidence_final": "A",
      "ambiguity_risk": "none",
      "recommended_query_zh": "西双版纳热带雨林",
      "review_note": "清晰单一地名，无歧义"
    },
    {
      "query_zh": "黄果树瀑布",
      "display_name": "黄果树瀑布",
      "lat": 25.98,
      "lng": 105.67,
      "elevation_m": 829.0,
      "confidence_final": "A",
      "ambiguity_risk": "none",
      "recommended_query_zh": "黄果树瀑布",
      "review_note": "清晰单一地名，无歧义"
    },
    {
      "query_zh": "柴达木盆地翡翠湖",
      "display_name": "柴达木盆地翡翠湖",
      "lat": 37.866427,
      "lng": 95.265841,
      "elevation_m": 3150.0,
      "confidence_final": "A",
      "ambiguity_risk": "none",
      "recommended_query_zh": "柴达木盆地翡翠湖",
      "review_note": "清晰单一地名，无歧义"
    },
    {
      "query_zh": "东极岛",
      "display_name": "东极岛",
      "lat": 30.172618,
      "lng": 122.721934,
      "elevation_m": null,
      "confidence_final": "A",
      "ambiguity_risk": "low",
      "recommended_query_zh": "东极岛庙子湖",
      "review_note": "['庙子湖/东福山/青浜/黄兴四个主岛，坐标取庙子湖(主岛码头)']"
    },
    {
      "query_zh": "湄洲岛",
      "display_name": "湄洲岛",
      "lat": 25.063757,
      "lng": 119.128418,
      "elevation_m": 12.0,
      "confidence_final": "A",
      "ambiguity_risk": "none",
      "recommended_query_zh": "湄洲岛",
      "review_note": "清晰单一地名，无歧义"
    },
    {
      "query_zh": "虎跳峡halfway客栈",
      "display_name": "虎跳峡halfway客栈",
      "lat": 27.241,
      "lng": 100.141,
      "elevation_m": 2216.0,
      "confidence_final": "A",
      "ambiguity_risk": "none",
      "recommended_query_zh": "虎跳峡halfway客栈",
      "review_note": "清晰单一地名，无歧义"
    },
    {
      "query_zh": "大理苍山洗马潭",
      "display_name": "大理苍山洗马潭",
      "lat": 25.676866,
      "lng": 100.145862,
      "elevation_m": 2241.0,
      "confidence_final": "A",
      "ambiguity_risk": "none",
      "recommended_query_zh": "大理苍山洗马潭",
      "review_note": "清晰单一地名，无歧义"
    },
    {
      "query_zh": "玉龙雪山云杉坪",
      "display_name": "玉龙雪山云杉坪",
      "lat": 27.129758,
      "lng": 100.235197,
      "elevation_m": 2933.0,
      "confidence_final": "A",
      "ambiguity_risk": "none",
      "recommended_query_zh": "玉龙雪山云杉坪",
      "review_note": "清晰单一地名，无歧义"
    },
    {
      "query_zh": "南迦巴瓦峰",
      "display_name": "南迦巴瓦峰",
      "lat": 29.63,
      "lng": 95.06,
      "elevation_m": 5825.0,
      "confidence_final": "A",
      "ambiguity_risk": "none",
      "recommended_query_zh": "南迦巴瓦峰",
      "review_note": "清晰单一地名，无歧义"
    },
    {
      "query_zh": "Everest Base Camp (Nepal)",
      "display_name": "Everest Base Camp (Nepal)",
      "lat": 27.988,
      "lng": 86.925,
      "elevation_m": 8724.0,
      "confidence_final": "A",
      "ambiguity_risk": "low",
      "recommended_query_zh": "使用坐标直查(27.988,86.925)",
      "review_note": "['南坡大本营(5364m)。高德查不到，使用Open-Meteo坐标']"
    },
    {
      "query_zh": "Annapurna Base Camp",
      "display_name": "Annapurna Base Camp",
      "lat": 28.53,
      "lng": 83.88,
      "elevation_m": 4093.0,
      "confidence_final": "A",
      "ambiguity_risk": "low",
      "recommended_query_zh": "使用英文名+国家查询",
      "review_note": "['海外地点建议使用英文名查询Open-Meteo Geocoding API']"
    },
    {
      "query_zh": "Chamonix-Mont-Blanc",
      "display_name": "Chamonix-Mont-Blanc",
      "lat": 45.923,
      "lng": 6.869,
      "elevation_m": 1042.0,
      "confidence_final": "A",
      "ambiguity_risk": "low",
      "recommended_query_zh": "使用英文名+国家查询",
      "review_note": "['海外地点建议使用英文名查询Open-Meteo Geocoding API']"
    },
    {
      "query_zh": "Zermatt",
      "display_name": "Zermatt",
      "lat": 46.02,
      "lng": 7.749,
      "elevation_m": 1613.0,
      "confidence_final": "A",
      "ambiguity_risk": "low",
      "recommended_query_zh": "使用英文名+国家查询",
      "review_note": "['海外地点建议使用英文名查询Open-Meteo Geocoding API']"
    },
    {
      "query_zh": "Kilimanjaro Base Camp",
      "display_name": "Kilimanjaro Base Camp",
      "lat": -3.067,
      "lng": 37.35,
      "elevation_m": 5744.0,
      "confidence_final": "A",
      "ambiguity_risk": "low",
      "recommended_query_zh": "使用英文名+国家查询",
      "review_note": "['海外地点建议使用英文名查询Open-Meteo Geocoding API']"
    },
    {
      "query_zh": "Patagonia Torres del Paine",
      "display_name": "Patagonia Torres del Paine",
      "lat": -51.0,
      "lng": -73.0,
      "elevation_m": 953.0,
      "confidence_final": "A",
      "ambiguity_risk": "low",
      "recommended_query_zh": "使用英文名+国家查询",
      "review_note": "['海外地点建议使用英文名查询Open-Meteo Geocoding API']"
    },
    {
      "query_zh": "Inca Trail Machu Picchu",
      "display_name": "Inca Trail Machu Picchu",
      "lat": -13.16,
      "lng": -72.53,
      "elevation_m": 2248.0,
      "confidence_final": "A",
      "ambiguity_risk": "low",
      "recommended_query_zh": "使用英文名+国家查询",
      "review_note": "['海外地点建议使用英文名查询Open-Meteo Geocoding API']"
    },
    {
      "query_zh": "Mount Fuji 5th Station",
      "display_name": "Mount Fuji 5th Station",
      "lat": 35.36,
      "lng": 138.73,
      "elevation_m": 3667.0,
      "confidence_final": "A",
      "ambiguity_risk": "low",
      "recommended_query_zh": "使用英文名+国家查询",
      "review_note": "['海外地点建议使用英文名查询Open-Meteo Geocoding API']"
    },
    {
      "query_zh": "Dolomites Alta Via 1",
      "display_name": "Dolomites Alta Via 1",
      "lat": 46.55,
      "lng": 12.2,
      "elevation_m": 1828.0,
      "confidence_final": "A",
      "ambiguity_risk": "low",
      "recommended_query_zh": "使用英文名+国家查询",
      "review_note": "['海外地点建议使用英文名查询Open-Meteo Geocoding API']"
    },
    {
      "query_zh": "Grand Canyon South Rim",
      "display_name": "Grand Canyon South Rim",
      "lat": 36.06,
      "lng": -112.14,
      "elevation_m": 1783.0,
      "confidence_final": "A",
      "ambiguity_risk": "low",
      "recommended_query_zh": "使用英文名+国家查询",
      "review_note": "['海外地点建议使用英文名查询Open-Meteo Geocoding API']"
    },
    {
      "query_zh": "Yosemite Valley",
      "display_name": "Yosemite Valley",
      "lat": 37.74,
      "lng": -119.58,
      "elevation_m": 1228.0,
      "confidence_final": "A",
      "ambiguity_risk": "low",
      "recommended_query_zh": "使用英文名+国家查询",
      "review_note": "['海外地点建议使用英文名查询Open-Meteo Geocoding API']"
    },
    {
      "query_zh": "Banff Lake Louise",
      "display_name": "Banff Lake Louise",
      "lat": 51.41,
      "lng": -116.22,
      "elevation_m": 1853.0,
      "confidence_final": "A",
      "ambiguity_risk": "low",
      "recommended_query_zh": "使用英文名+国家查询",
      "review_note": "['海外地点建议使用英文名查询Open-Meteo Geocoding API']"
    },
    {
      "query_zh": "Snowdonia National Park",
      "display_name": "Snowdonia National Park",
      "lat": 53.07,
      "lng": -4.08,
      "elevation_m": 973.0,
      "confidence_final": "A",
      "ambiguity_risk": "low",
      "recommended_query_zh": "使用英文名+国家查询",
      "review_note": "['海外地点建议使用英文名查询Open-Meteo Geocoding API']"
    },
    {
      "query_zh": "Trolltunga, Norway",
      "display_name": "Trolltunga, Norway",
      "lat": -69.5,
      "lng": -0.5,
      "elevation_m": null,
      "confidence_final": "A",
      "ambiguity_risk": "low",
      "recommended_query_zh": "使用英文名+国家查询",
      "review_note": "['海外地点建议使用英文名查询Open-Meteo Geocoding API']"
    },
    {
      "query_zh": "Mount Cook Village",
      "display_name": "Mount Cook Village",
      "lat": -43.73,
      "lng": 170.1,
      "elevation_m": 726.0,
      "confidence_final": "A",
      "ambiguity_risk": "low",
      "recommended_query_zh": "使用英文名+国家查询",
      "review_note": "['海外地点建议使用英文名查询Open-Meteo Geocoding API']"
    },
    {
      "query_zh": "Rinjani Crater Rim",
      "display_name": "Rinjani Crater Rim",
      "lat": -8.4,
      "lng": 116.45,
      "elevation_m": 2976.0,
      "confidence_final": "A",
      "ambiguity_risk": "low",
      "recommended_query_zh": "使用英文名+国家查询",
      "review_note": "['海外地点建议使用英文名查询Open-Meteo Geocoding API']"
    },
    {
      "query_zh": "Mount Kinabalu",
      "display_name": "Mount Kinabalu",
      "lat": 6.075,
      "lng": 116.558,
      "elevation_m": 3951.0,
      "confidence_final": "A",
      "ambiguity_risk": "low",
      "recommended_query_zh": "使用英文名+国家查询",
      "review_note": "['海外地点建议使用英文名查询Open-Meteo Geocoding API']"
    },
    {
      "query_zh": "Salkantay Trek, Peru",
      "display_name": "Salkantay Trek, Peru",
      "lat": -13.33,
      "lng": -72.6,
      "elevation_m": 3908.0,
      "confidence_final": "A",
      "ambiguity_risk": "low",
      "recommended_query_zh": "使用英文名+国家查询",
      "review_note": "['海外地点建议使用英文名查询Open-Meteo Geocoding API']"
    },
    {
      "query_zh": "Bergen, Norway",
      "display_name": "Bergen, Norway",
      "lat": 60.39,
      "lng": 5.33,
      "elevation_m": 4.0,
      "confidence_final": "A",
      "ambiguity_risk": "low",
      "recommended_query_zh": "使用英文名+国家查询",
      "review_note": "['海外地点建议使用英文名查询Open-Meteo Geocoding API']"
    },
    {
      "query_zh": "Death Valley Furnace Creek",
      "display_name": "Death Valley Furnace Creek",
      "lat": 36.46,
      "lng": -116.87,
      "elevation_m": -58.0,
      "confidence_final": "A",
      "ambiguity_risk": "low",
      "recommended_query_zh": "使用英文名+国家查询",
      "review_note": "['海外地点建议使用英文名查询Open-Meteo Geocoding API']"
    },
    {
      "query_zh": "Sahara Desert Merzouga",
      "display_name": "Sahara Desert Merzouga",
      "lat": 31.1,
      "lng": -4.01,
      "elevation_m": 698.0,
      "confidence_final": "A",
      "ambiguity_risk": "low",
      "recommended_query_zh": "使用英文名+国家查询",
      "review_note": "['海外地点建议使用英文名查询Open-Meteo Geocoding API']"
    },
    {
      "query_zh": "Reykjavik, Iceland",
      "display_name": "Reykjavik, Iceland",
      "lat": 64.13548,
      "lng": -21.89541,
      "elevation_m": 37.0,
      "confidence_final": "A",
      "ambiguity_risk": "low",
      "recommended_query_zh": "使用英文名+国家查询",
      "review_note": "['海外地点建议使用英文名查询Open-Meteo Geocoding API']"
    },
    {
      "query_zh": "海坨山",
      "display_name": "海坨山",
      "lat": 40.576262,
      "lng": 115.824592,
      "elevation_m": 1894.0,
      "confidence_final": "A",
      "ambiguity_risk": "low",
      "recommended_query_zh": "海坨山(北京延庆)",
      "review_note": "['海坨山主峰(2241m) vs 小海坨(冬奥赛场)，部分区域已封闭。坐标取小海坨']"
    },
    {
      "query_zh": "小五台",
      "display_name": "小五台",
      "lat": 39.933923,
      "lng": 115.003255,
      "elevation_m": 1851.0,
      "confidence_final": "A",
      "ambiguity_risk": "low",
      "recommended_query_zh": "小五台东台入口(赤崖堡)",
      "review_note": "['小五台山(东台2882m)已封山严禁进入。坐标保留备查，气象查询取赤崖堡村(1150m)']"
    },
    {
      "query_zh": "箭扣长城",
      "display_name": "箭扣长城",
      "lat": 40.443673,
      "lng": 116.5355,
      "elevation_m": 322.0,
      "confidence_final": "A",
      "ambiguity_risk": "low",
      "recommended_query_zh": "箭扣长城西栅子村",
      "review_note": "['北京怀柔西栅子村是徒步起点(海拔500m)。箭扣长城山脊海拔900-1100m']"
    },
    {
      "query_zh": "老掌沟",
      "display_name": "老掌沟",
      "lat": 41.365886,
      "lng": 115.964932,
      "elevation_m": 1531.0,
      "confidence_final": "A",
      "ambiguity_risk": "low",
      "recommended_query_zh": "老掌沟(河北沽源)",
      "review_note": "['河北沽源县，京北经典越野/徒步路线，主峰海拔约2200m']"
    },
    {
      "query_zh": "坝上",
      "display_name": "坝上",
      "lat": 41.601121,
      "lng": 115.988194,
      "elevation_m": 1468.0,
      "confidence_final": "A",
      "ambiguity_risk": "medium",
      "recommended_query_zh": "丰宁坝上草原",
      "review_note": "['坝上范围极广(丰宁/围场/张北/沽源)，气候差异大。坐标取丰宁坝上入口，推荐丰宁最通用']"
    },
    {
      "query_zh": "乌兰布统",
      "display_name": "乌兰布统",
      "lat": 42.587692,
      "lng": 117.200053,
      "elevation_m": 1502.0,
      "confidence_final": "A",
      "ambiguity_risk": "low",
      "recommended_query_zh": "乌兰布统(内蒙古赤峰)",
      "review_note": "['内蒙古克什克腾旗，与河北塞罕坝相邻。海拔1500-1700m']"
    },
    {
      "query_zh": "库布齐沙漠",
      "display_name": "库布齐沙漠",
      "lat": 40.28048,
      "lng": 109.939687,
      "elevation_m": 1083.0,
      "confidence_final": "A",
      "ambiguity_risk": "medium",
      "recommended_query_zh": "库布齐沙漠夜鸣沙",
      "review_note": "['东段(响沙湾/夜鸣沙) vs 西段(七星湖)。坐标取夜鸣沙入口，经典穿越起点']"
    },
    {
      "query_zh": "徽杭古道",
      "display_name": "徽杭古道",
      "lat": 30.137632,
      "lng": 118.804247,
      "elevation_m": 735.0,
      "confidence_final": "A",
      "ambiguity_risk": "medium",
      "recommended_query_zh": "徽杭古道绩溪入口",
      "review_note": "['安徽绩溪→浙江临安，全长20km。坐标取绩溪侧入口(江南第一关)']"
    },
    {
      "query_zh": "雁荡山",
      "display_name": "雁荡山",
      "lat": 28.373656,
      "lng": 121.033716,
      "elevation_m": 550.0,
      "confidence_final": "A",
      "ambiguity_risk": "low",
      "recommended_query_zh": "雁荡山(北雁荡)",
      "review_note": "['雁荡山分北/中/南/西/东五部分，北雁荡最经典。坐标取灵峰景区']"
    },
    {
      "query_zh": "太姥山",
      "display_name": "太姥山",
      "lat": 27.124142,
      "lng": 120.184719,
      "elevation_m": 834.0,
      "confidence_final": "A",
      "ambiguity_risk": "medium",
      "recommended_query_zh": "太姥山(福建福鼎)",
      "review_note": "['福建福鼎市，海边名山。坐标取景区入口']"
    },
    {
      "query_zh": "武夷山徒步起点",
      "display_name": "武夷山徒步起点",
      "lat": 27.656446,
      "lng": 117.959681,
      "elevation_m": 432.0,
      "confidence_final": "A",
      "ambiguity_risk": "high",
      "recommended_query_zh": "武夷山景区南入口",
      "review_note": "['武夷山市范围大，景区南入口(星村)是经典徒步起点(天游峰/大红袍)']"
    },
    {
      "query_zh": "漓江徒步起点",
      "display_name": "漓江徒步起点",
      "lat": 24.992979,
      "lng": 110.454812,
      "elevation_m": 169.0,
      "confidence_final": "A",
      "ambiguity_risk": "low",
      "recommended_query_zh": "杨堤码头(漓江徒步起点)",
      "review_note": "['杨堤→兴坪是漓江经典徒步段(约16km)，路上需过渡2次。坐标取杨堤码头']"
    },
    {
      "query_zh": "丹霞山",
      "display_name": "丹霞山",
      "lat": 25.02608,
      "lng": 113.732609,
      "elevation_m": 99.0,
      "confidence_final": "A",
      "ambiguity_risk": "low",
      "recommended_query_zh": "丹霞山(广东韶关)",
      "review_note": "['广东韶关仁化县，世界地质公园。坐标取长老峰景区']"
    },
    {
      "query_zh": "鼎湖山",
      "display_name": "鼎湖山",
      "lat": 23.167688,
      "lng": 112.539083,
      "elevation_m": 394.0,
      "confidence_final": "A",
      "ambiguity_risk": "medium",
      "recommended_query_zh": "鼎湖山(广东肇庆)",
      "review_note": "['广东肇庆，北回归线唯一亚热带常绿阔叶林。坐标取景区入口']"
    },
    {
      "query_zh": "七娘山",
      "display_name": "七娘山",
      "lat": 22.528186,
      "lng": 114.520967,
      "elevation_m": 24.0,
      "confidence_final": "A",
      "ambiguity_risk": "low",
      "recommended_query_zh": "七娘山(深圳大鹏)",
      "review_note": "['深圳第二高峰(869m)，大鹏半岛。上山路较多(主峰科考线)']"
    },
    {
      "query_zh": "东西冲",
      "display_name": "东西冲",
      "lat": 22.490799,
      "lng": 114.580964,
      "elevation_m": null,
      "confidence_final": "A",
      "ambiguity_risk": "low",
      "recommended_query_zh": "东西冲海岸线(东涌)",
      "review_note": "['深圳经典海岸线徒步(东涌→西涌，约8km)。坐标取东涌起点']"
    },
    {
      "query_zh": "喀纳斯徒步起点",
      "display_name": "喀纳斯徒步起点",
      "lat": 48.607285,
      "lng": 86.999057,
      "elevation_m": 2563.0,
      "confidence_final": "A",
      "ambiguity_risk": "low",
      "recommended_query_zh": "贾登峪(喀纳斯徒步起点)",
      "review_note": "['贾登峪→禾木→喀纳斯湖经典徒步线，约50km。坐标取贾登峪']"
    },
    {
      "query_zh": "禾木",
      "display_name": "禾木",
      "lat": 48.583994,
      "lng": 87.445471,
      "elevation_m": 1130.0,
      "confidence_final": "A",
      "ambiguity_risk": "low",
      "recommended_query_zh": "禾木村(喀纳斯)",
      "review_note": "['喀纳斯区域图瓦人村落，秋景最美。海拔1100-1300m。坐标取禾木村中心']"
    },
    {
      "query_zh": "白哈巴",
      "display_name": "白哈巴",
      "lat": 48.693135,
      "lng": 86.785314,
      "elevation_m": 1262.0,
      "confidence_final": "A",
      "ambiguity_risk": "low",
      "recommended_query_zh": "白哈巴村(西北第一村)",
      "review_note": "['新疆阿勒泰地区，喀纳斯景区内。需边防证。坐标取村中心']"
    },
    {
      "query_zh": "夏塔古道起点",
      "display_name": "夏塔古道起点",
      "lat": 42.668839,
      "lng": 80.588177,
      "elevation_m": 1962.0,
      "confidence_final": "A",
      "ambiguity_risk": "low",
      "recommended_query_zh": "夏塔古道温泉酒店(起点)",
      "review_note": "['新疆昭苏县夏塔古道徒步起点(温泉酒店)，坐标取该点']"
    },
    {
      "query_zh": "梅里北坡起点",
      "display_name": "梅里北坡起点",
      "lat": 28.604869,
      "lng": 98.724424,
      "elevation_m": 3157.0,
      "confidence_final": "A",
      "ambiguity_risk": "low",
      "recommended_query_zh": "亚贡村(梅里北坡起点)",
      "review_note": "['云南德钦县亚贡村，梅里北坡徒步起点。坐标取亚贡村']"
    },
    {
      "query_zh": "格聂",
      "display_name": "格聂",
      "lat": 29.82279,
      "lng": 99.643848,
      "elevation_m": 4371.0,
      "confidence_final": "A",
      "ambiguity_risk": "low",
      "recommended_query_zh": "格聂神山(四川理塘)",
      "review_note": "['格聂C线经典徒步，四川理塘县。坐标取格聂之眼区域']"
    },
    {
      "query_zh": "七藏沟沟口",
      "display_name": "七藏沟沟口",
      "lat": 32.871814,
      "lng": 103.723208,
      "elevation_m": 3821.0,
      "confidence_final": "A",
      "ambiguity_risk": "low",
      "recommended_query_zh": "七藏沟阿翁沟入口",
      "review_note": "['四川松潘县，黄龙后方。从阿翁沟进入七藏沟']"
    },
    {
      "query_zh": "长白山北坡",
      "display_name": "长白山北坡",
      "lat": 42.404142,
      "lng": 128.117438,
      "elevation_m": 734.0,
      "confidence_final": "A",
      "ambiguity_risk": "medium",
      "recommended_query_zh": "长白山北景区(二道白河)",
      "review_note": "['二道白河镇入口，主峰天文峰。天池坐标已在87条主表中']"
    },
    {
      "query_zh": "长白山西坡",
      "display_name": "长白山西坡",
      "lat": 42.035868,
      "lng": 127.812782,
      "elevation_m": 1074.0,
      "confidence_final": "A",
      "ambiguity_risk": "medium",
      "recommended_query_zh": "长白山西景区(松江河)",
      "review_note": "['松江河镇入口，1442级台阶上主峰']"
    },
    {
      "query_zh": "北极村",
      "display_name": "北极村",
      "lat": 53.475645,
      "lng": 122.360052,
      "elevation_m": 298.0,
      "confidence_final": "A",
      "ambiguity_risk": "low",
      "recommended_query_zh": "北极村(漠河)",
      "review_note": "['漠河市北极镇，中国最北村镇(53.5°N)。冬季气温可低至-50°C']"
    },
    {
      "query_zh": "Lukla",
      "display_name": "Lukla",
      "lat": 27.6873,
      "lng": 86.7314,
      "elevation_m": 2840,
      "confidence_final": "A",
      "ambiguity_risk": "low",
      "recommended_query_zh": "Lukla Airport(尼泊尔)",
      "review_note": "['尼泊尔卢克拉机场(2840m)，EBC徒步起点。海外地点用英文名+坐标']"
    },
    {
      "query_zh": "Pokhara",
      "display_name": "Pokhara",
      "lat": 28.2096,
      "lng": 83.9856,
      "elevation_m": 827,
      "confidence_final": "A",
      "ambiguity_risk": "low",
      "recommended_query_zh": "Pokhara(博卡拉)",
      "review_note": "['尼泊尔博卡拉，ABC/ACT徒步起点城市。海拔820m']"
    },
    {
      "query_zh": "Jomsom",
      "display_name": "Jomsom",
      "lat": 28.7836,
      "lng": 83.7336,
      "elevation_m": 2743,
      "confidence_final": "A",
      "ambiguity_risk": "medium",
      "recommended_query_zh": "Jomsom(尼泊尔ACT终点)",
      "review_note": "['尼泊尔ACT徒步终点/木斯塘入口(2720m)。海外用英文名+坐标查']"
    },
    {
      "query_zh": "Namche Bazaar",
      "display_name": "Namche Bazaar",
      "lat": 27.805,
      "lng": 86.71,
      "elevation_m": 3440,
      "confidence_final": "A",
      "ambiguity_risk": "low",
      "recommended_query_zh": "Namche Bazaar(尼泊尔EBC)",
      "review_note": "['EBC徒步夏尔巴首都(3440m)。海外用英文名+坐标查']"
    },
    {
      "query_zh": "富士山五合目",
      "display_name": "富士山五合目",
      "lat": 35.3606,
      "lng": 138.73,
      "elevation_m": 2305,
      "confidence_final": "A",
      "ambiguity_risk": "low",
      "recommended_query_zh": "富士山吉田路线五合目",
      "review_note": "['日本富士山吉田路线五合目(2305m)。富士山5条登山路线，吉田最常用']"
    },
    {
      "query_zh": "熊野古道起点",
      "display_name": "熊野古道起点",
      "lat": 33.7275,
      "lng": 135.378,
      "elevation_m": 50,
      "confidence_final": "A",
      "ambiguity_risk": "low",
      "recommended_query_zh": "熊野古道中边路(田辺)",
      "review_note": "['日本和歌山县，熊野古道有多条路线(中边路/小边路等)。坐标取田辺市']"
    },
    {
      "query_zh": "Chamonix",
      "display_name": "Chamonix",
      "lat": 45.9237,
      "lng": 6.8694,
      "elevation_m": 1035,
      "confidence_final": "A",
      "ambiguity_risk": "low",
      "recommended_query_zh": "Chamonix(法国霞慕尼)",
      "review_note": "['法国阿尔卑斯登山/徒步中心，勃朗峰起点。海拔1035m']"
    },
    {
      "query_zh": "Grindelwald",
      "display_name": "Grindelwald",
      "lat": 46.624,
      "lng": 8.041,
      "elevation_m": 1034,
      "confidence_final": "A",
      "ambiguity_risk": "low",
      "recommended_query_zh": "Grindelwald(瑞士格林德瓦)",
      "review_note": "['瑞士少女峰地区/Eiger Trail起点。坐标取格林德瓦小镇']"
    },
    {
      "query_zh": "Cortina d'Ampezzo",
      "display_name": "Cortina d'Ampezzo",
      "lat": 46.5375,
      "lng": 12.1365,
      "elevation_m": 1224,
      "confidence_final": "A",
      "ambiguity_risk": "low",
      "recommended_query_zh": "Cortina d'Ampezzo(意大利多洛米蒂)",
      "review_note": "['意大利多洛米蒂核心小镇，Alta Via 1起点。海拔1224m']"
    },
    {
      "query_zh": "Cusco",
      "display_name": "Cusco",
      "lat": -13.532,
      "lng": -71.9675,
      "elevation_m": 3399,
      "confidence_final": "A",
      "ambiguity_risk": "low",
      "recommended_query_zh": "Cusco(秘鲁库斯科)",
      "review_note": "['秘鲁印加古道起点城市，海拔3399m。海外用英文名+坐标查']"
    },
    {
      "query_zh": "Torres del Paine入口",
      "display_name": "Torres del Paine入口",
      "lat": -51.0,
      "lng": -73.0,
      "elevation_m": 150,
      "confidence_final": "A",
      "ambiguity_risk": "low",
      "recommended_query_zh": "Torres del Paine(智利百内国家公园)",
      "review_note": "['智利百内国家公园W/O路线起点坐标(-51.0,-73.0)，范围较大']"
    },
    {
      "query_zh": "Moshi",
      "display_name": "Moshi",
      "lat": -3.335,
      "lng": 37.34,
      "elevation_m": 890,
      "confidence_final": "A",
      "ambiguity_risk": "low",
      "recommended_query_zh": "Moshi(坦桑尼亚莫希)",
      "review_note": "['坦桑尼亚乞力马扎罗登山起点城市(890m)。海外用英文名+坐标查']"
    },
    {
      "query_zh": "Kinabalu Park HQ",
      "display_name": "Kinabalu Park HQ",
      "lat": 6.008,
      "lng": 116.543,
      "elevation_m": 1563,
      "confidence_final": "A",
      "ambiguity_risk": "medium",
      "recommended_query_zh": "Kinabalu Park HQ(马来西亚沙巴)",
      "review_note": "['京那巴鲁山(神山)登山入口，海拔1560m。海外用英文名+坐标查']"
    },
    {
      "query_zh": "Doi Inthanon",
      "display_name": "Doi Inthanon",
      "lat": 18.589,
      "lng": 98.487,
      "elevation_m": 2565,
      "confidence_final": "A",
      "ambiguity_risk": "low",
      "recommended_query_zh": "Doi Inthanon(泰国清迈)",
      "review_note": "['泰国最高峰(2565m)，清迈因他农山国家公园']"
    }
  ]
}